{"name": "Merlot", "data": [{"name": "Aconcagua Valley", "lat": -32.6535552, "lon": -70.0114833, "rating": 87.0, "color": "#ffdb58"}, {"name": "Aegean", "lat": 37.6627595, "lon": 25.52576007659, "rating": 86.0, "color": "#c62121"}, {"name": "Apalta", "lat": -34.6239248, "lon": -71.2671251, "rating": 84.0, "color": "#c62121"}, {"name": "Atalanti Valley", "lat": 38.6740264, "lon": 23.0941149, "rating": 88.0, "color": "#ffdb58"}, {"name": "Australia Other", "lat": -33.6657819, "lon": 150.6568861, "rating": 85.125, "color": "#c62121"}, {"name": "Bairrada", "lat": 39.6462485, "lon": -8.2413418, "rating": 89.5, "color": "#ffdb58"}, {"name": "Bordeaux", "lat": 44.841225, "lon": -0.5800364, "rating": 87.31944444444444, "color": "#ffdb58"}, {"name": "British Columbia", "lat": 55.001251, "lon": -125.002441, "rating": 89.5, "color": "#ffdb58"}, {"name": "Burgenland", "lat": 47.5000001, "lon": 16.4166666, "rating": 89.5, "color": "#ffdb58"}, {"name": "Cachapoal Valley", "lat": -34.2718634, "lon": -70.9938223, "rating": 84.92307692307692, "color": "#c62121"}, {"name": "California", "lat": 36.7014631, "lon": -118.7559974, "rating": 86.97699496764918, "color": "#ffdb58"}, {"name": "Canelones", "lat": -34.6222482, "lon": -55.9903797, "rating": 84.0, "color": "#c62121"}, {"name": "Carnuntum", "lat": 48.11096895, "lon": 16.8567017521481, "rating": 94.0, "color": "#186218"}, {"name": "Casablanca Valley", "lat": 33.5950627, "lon": -7.6187768, "rating": 84.61538461538461, "color": "#c62121"}, {"name": "Central Italy", "lat": 45.4843523, "lon": 9.2033717, "rating": 85.625, "color": "#c62121"}, {"name": "Central Spain", "lat": 43.2854713, "lon": -5.6270754, "rating": 81.66666666666667, "color": "#c62121"}, {"name": "Central Valley", "lat": 38.0, "lon": -121.4, "rating": 84.60714285714286, "color": "#c62121"}, {"name": "Chile", "lat": -31.7613365, "lon": -71.3187697, "rating": 84.0, "color": "#c62121"}, {"name": "Coastal Region", "lat": 14.6775283, "lon": 121.0603642, "rating": 85.16666666666667, "color": "#c62121"}, {"name": "Colchagua Costa", "lat": -34.6435092, "lon": -70.9906917, "rating": 84.0, "color": "#c62121"}, {"name": "Colchagua Valley", "lat": -34.548228, "lon": -71.4013194, "rating": 86.41509433962264, "color": "#ffdb58"}, {"name": "Colorado", "lat": 38.7251776, "lon": -105.6077167, "rating": 85.66666666666667, "color": "#c62121"}, {"name": "Curic\u00f3 Valley", "lat": -34.985368, "lon": -71.2393705, "rating": 85.17391304347827, "color": "#c62121"}, {"name": "Dealu Mare", "lat": 45.15883225, "lon": 25.4478130074207, "rating": 86.25, "color": "#ffdb58"}, {"name": "Devon Valley", "lat": 50.75, "lon": -3.75, "rating": 84.0, "color": "#c62121"}, {"name": "Drama", "lat": 41.1499443, "lon": 24.1468286, "rating": 88.0, "color": "#ffdb58"}, {"name": "Ella Valley", "lat": 7.2428661, "lon": 144.4445455, "rating": 88.0, "color": "#ffdb58"}, {"name": "Florina", "lat": 40.779442, "lon": 21.407594, "rating": 92.0, "color": "#ffdb58"}, {"name": "France Other", "lat": 48.8679986, "lon": 2.3240664, "rating": 85.5, "color": "#c62121"}, {"name": "Franschhoek", "lat": -33.909167, "lon": 19.119444, "rating": 86.0, "color": "#c62121"}, {"name": "Galil", "lat": 32.0609027, "lon": 34.7789711, "rating": 85.0, "color": "#c62121"}, {"name": "Galilee", "lat": 40.3364992, "lon": -73.9743038, "rating": 87.5925925925926, "color": "#ffdb58"}, {"name": "Golan Heights", "lat": 33.2120673, "lon": 35.7877991, "rating": 87.0, "color": "#ffdb58"}, {"name": "Goriska Brda", "lat": 45.9997652, "lon": 13.5310028, "rating": 89.0, "color": "#ffdb58"}, {"name": "Hawke's Bay", "lat": -39.4343279, "lon": 176.7652742, "rating": 89.55555555555556, "color": "#ffdb58"}, {"name": "Idaho", "lat": 43.6447642, "lon": -114.0154071, "rating": 86.45454545454545, "color": "#ffdb58"}, {"name": "Israel", "lat": 30.8760272, "lon": 35.0015196, "rating": 88.0, "color": "#ffdb58"}, {"name": "Judean Hills", "lat": 31.666667, "lon": 35.166667, "rating": 88.0, "color": "#ffdb58"}, {"name": "Languedoc-Roussillon", "lat": 43.65420305, "lon": 3.67466994020661, "rating": 84.88235294117646, "color": "#c62121"}, {"name": "Limar\u00ed Valley", "lat": 45.7765324, "lon": 3.5287121, "rating": 85.0, "color": "#c62121"}, {"name": "Lisboa", "lat": 38.7077507, "lon": -9.1365919, "rating": 90.0, "color": "#ffdb58"}, {"name": "Lontu\u00e9 Valley", "lat": -35.0549065, "lon": -71.2745634, "rating": 82.66666666666667, "color": "#c62121"}, {"name": "Maipo Valley", "lat": -34.60278525, "lon": -58.3779282, "rating": 84.66666666666667, "color": "#c62121"}, {"name": "Marchigue", "lat": -34.400088, "lon": -71.6182815, "rating": 91.0, "color": "#ffdb58"}, {"name": "Marlborough", "lat": 42.3459271, "lon": -71.5522874, "rating": 87.0, "color": "#ffdb58"}, {"name": "Maule Valley", "lat": -35.5972284, "lon": -71.48868, "rating": 85.03571428571429, "color": "#c62121"}, {"name": "Mendoza Province", "lat": -32.8056558, "lon": -61.4109795, "rating": 85.0576923076923, "color": "#c62121"}, {"name": "Michigan", "lat": 43.6211955, "lon": -84.6824346, "rating": 86.0, "color": "#c62121"}, {"name": "Moldova", "lat": 47.286747, "lon": 28.5110236, "rating": 86.5, "color": "#ffdb58"}, {"name": "Molina", "lat": 28.1077453, "lon": -16.6605747, "rating": 82.0, "color": "#c62121"}, {"name": "Negev Hills", "lat": 30.9247487, "lon": 34.7196507, "rating": 81.0, "color": "#c62121"}, {"name": "New Jersey", "lat": 40.0757384, "lon": -74.4041622, "rating": 83.0, "color": "#c62121"}, {"name": "New Mexico", "lat": 34.5708167, "lon": -105.993007, "rating": 84.5, "color": "#c62121"}, {"name": "New South Wales", "lat": -31.8759835, "lon": 147.2869493, "rating": 85.0, "color": "#c62121"}, {"name": "New York", "lat": 40.7127281, "lon": -74.0060152, "rating": 87.32330827067669, "color": "#ffdb58"}, {"name": "Northern Spain", "lat": 38.054602, "lon": -0.707162183743853, "rating": 85.75, "color": "#c62121"}, {"name": "Ontario", "lat": 50.000678, "lon": -86.000977, "rating": 84.0, "color": "#c62121"}, {"name": "Oregon", "lat": 43.9792797, "lon": -120.737257, "rating": 86.82352941176471, "color": "#ffdb58"}, {"name": "Other", "lat": 27.5199764, "lon": 83.6593887565727, "rating": 84.85714285714286, "color": "#c62121"}, {"name": "Paarl", "lat": -33.741667, "lon": 18.975, "rating": 86.5, "color": "#ffdb58"}, {"name": "Peloponnese", "lat": 37.36332825, "lon": 22.2395373439955, "rating": 86.0, "color": "#c62121"}, {"name": "Pennsylvania", "lat": 40.9699889, "lon": -77.7278831, "rating": 84.33333333333333, "color": "#c62121"}, {"name": "Pen\u00ednsula de Set\u00fabal", "lat": 38.6272781, "lon": -8.92968865426421, "rating": 87.5, "color": "#ffdb58"}, {"name": "Peumo", "lat": -34.3898607, "lon": -71.1718297, "rating": 87.0, "color": "#ffdb58"}, {"name": "Rapel Valley", "lat": -30.7234054, "lon": -70.772125, "rating": 85.64516129032258, "color": "#c62121"}, {"name": "Recas", "lat": 40.0531375, "lon": -3.9902585, "rating": 84.0, "color": "#c62121"}, {"name": "Rio Claro", "lat": -22.4100108, "lon": -47.5603933, "rating": 82.0, "color": "#c62121"}, {"name": "Robertson", "lat": 36.4996336, "lon": -86.8519164, "rating": 84.0, "color": "#c62121"}, {"name": "Romania", "lat": 45.9852129, "lon": 24.6859225, "rating": 86.33333333333333, "color": "#ffdb58"}, {"name": "San Clemente", "lat": 33.4270275, "lon": -117.6124179, "rating": 86.0, "color": "#c62121"}, {"name": "Serra Ga\u00facha", "lat": -29.16313595, "lon": -51.4954386628942, "rating": 85.75, "color": "#c62121"}, {"name": "Serra do Sudeste", "lat": -20.1252961, "lon": -40.3064477, "rating": 82.0, "color": "#c62121"}, {"name": "Sicily & Sardinia", "lat": 39.2564254, "lon": 9.0600276, "rating": 87.0909090909091, "color": "#ffdb58"}, {"name": "Simonsberg-Stellenbosch", "lat": -33.883948, "lon": 18.9271246, "rating": 90.0, "color": "#ffdb58"}, {"name": "South Australia", "lat": -30.5343665, "lon": 135.6301212, "rating": 86.0, "color": "#c62121"}, {"name": "Southern Italy", "lat": 45.5598911, "lon": 9.0606512, "rating": 92.5, "color": "#186218"}, {"name": "Southwest France", "lat": 46.603354, "lon": 1.8883335, "rating": 86.83333333333333, "color": "#ffdb58"}, {"name": "Stellenbosch", "lat": -33.934444, "lon": 18.869167, "rating": 87.125, "color": "#ffdb58"}, {"name": "Tejo", "lat": 39.7947712, "lon": -5.1348386, "rating": 87.28571428571429, "color": "#ffdb58"}, {"name": "Texas", "lat": 31.8160381, "lon": -99.5120986, "rating": 87.0, "color": "#ffdb58"}, {"name": "Thracian Valley", "lat": 40.25, "lon": 24.4167, "rating": 87.6923076923077, "color": "#ffdb58"}, {"name": "Ticino", "lat": 46.3356506, "lon": 8.753706, "rating": 83.0, "color": "#c62121"}, {"name": "Tuscany", "lat": 43.4586541, "lon": 11.1389204, "rating": 90.27, "color": "#ffdb58"}, {"name": "Ukraine", "lat": 49.4871968, "lon": 31.2718321, "rating": 84.0, "color": "#c62121"}, {"name": "Upper Galilee", "lat": 45.9416098, "lon": 6.63716768778273, "rating": 87.0, "color": "#ffdb58"}, {"name": "Vale Trentino", "lat": 36.8707276, "lon": 14.7565634, "rating": 81.0, "color": "#c62121"}, {"name": "Vale dos Vinhedos", "lat": -29.18157965, "lon": -51.5832778013059, "rating": 85.0, "color": "#c62121"}, {"name": "Valle de Guadalupe", "lat": 21.0426533, "lon": -102.67986462733, "rating": 82.0, "color": "#c62121"}, {"name": "Veneto", "lat": 45.6476663, "lon": 11.8665254, "rating": 87.07142857142857, "color": "#ffdb58"}, {"name": "Victoria", "lat": -36.5986096, "lon": 144.6780052, "rating": 89.0, "color": "#ffdb58"}, {"name": "Vill\u00e1ny", "lat": 45.8697644, "lon": 18.4555208, "rating": 89.0, "color": "#ffdb58"}, {"name": "Virginia", "lat": 37.1232245, "lon": -78.4927721, "rating": 85.91891891891892, "color": "#c62121"}, {"name": "Washington", "lat": 38.8948932, "lon": -77.0365529, "rating": 88.46846846846847, "color": "#ffdb58"}, {"name": "Western Australia", "lat": -25.2303005, "lon": 121.0187246, "rating": 86.0, "color": "#c62121"}, {"name": "Western Cape", "lat": -33.546977, "lon": 20.72753, "rating": 86.0, "color": "#c62121"}]}