{"name": "Nebbiolo", "data": [{"name": "California", "lat": 36.7014631, "lon": -118.7559974, "rating": 89.85714285714286, "color": "#ffdb58"}, {"name": "Italy Other", "lat": 44.4946938, "lon": 11.344536, "rating": 90.5, "color": "#ffdb58"}, {"name": "Lombardy", "lat": 45.6209, "lon": 9.768893, "rating": 89.78787878787878, "color": "#ffdb58"}, {"name": "Mendoza Province", "lat": -32.8056558, "lon": -61.4109795, "rating": 88.75, "color": "#ffdb58"}, {"name": "New Mexico", "lat": 34.5708167, "lon": -105.993007, "rating": 83.0, "color": "#c62121"}, {"name": "Ohio", "lat": 40.2253569, "lon": -82.6881395, "rating": 80.0, "color": "#c62121"}, {"name": "Piedmont", "lat": 37.8243715, "lon": -122.231635, "rating": 90.31794294294295, "color": "#ffdb58"}, {"name": "San Vicente", "lat": 13.52720365, "lon": -88.7398925863117, "rating": 88.0, "color": "#ffdb58"}, {"name": "Valle de Guadalupe", "lat": 21.0426533, "lon": -102.67986462733, "rating": 85.8, "color": "#c62121"}, {"name": "Virginia", "lat": 37.1232245, "lon": -78.4927721, "rating": 85.4, "color": "#c62121"}, {"name": "Washington", "lat": 38.8948932, "lon": -77.0365529, "rating": 86.72727272727273, "color": "#ffdb58"}]}