{"name": "Pinot Gris", "data": [{"name": "Alsace", "lat": 48.24917645, "lon": 7.4074699518555, "rating": 89.63318777292577, "color": "#ffdb58"}, {"name": "Arizona", "lat": 34.395342, "lon": -111.7632755, "rating": 86.0, "color": "#c62121"}, {"name": "Awatere Valley", "lat": -41.8529115, "lon": 173.6964424, "rating": 87.5, "color": "#ffdb58"}, {"name": "Baden", "lat": 48.0085749, "lon": 16.2334951, "rating": 87.8, "color": "#ffdb58"}, {"name": "British Columbia", "lat": 55.001251, "lon": -125.002441, "rating": 90.25, "color": "#ffdb58"}, {"name": "Burgenland", "lat": 47.5000001, "lon": 16.4166666, "rating": 89.6, "color": "#ffdb58"}, {"name": "California", "lat": 36.7014631, "lon": -118.7559974, "rating": 88.05208333333333, "color": "#ffdb58"}, {"name": "Central Otago", "lat": -45.1299859, "lon": 169.5248818, "rating": 88.27272727272727, "color": "#ffdb58"}, {"name": "Dealu Mare", "lat": 45.15883225, "lon": 25.4478130074207, "rating": 88.0, "color": "#ffdb58"}, {"name": "East Coast", "lat": 1.3104654, "lon": 103.9235132, "rating": 86.0, "color": "#c62121"}, {"name": "Galilee", "lat": 40.3364992, "lon": -73.9743038, "rating": 90.0, "color": "#ffdb58"}, {"name": "Germany", "lat": 51.0834196, "lon": 10.4234469, "rating": 88.0, "color": "#ffdb58"}, {"name": "Goriska Brda", "lat": 45.9997652, "lon": 13.5310028, "rating": 89.0, "color": "#ffdb58"}, {"name": "Hawke's Bay", "lat": -39.4343279, "lon": 176.7652742, "rating": 85.0, "color": "#c62121"}, {"name": "Idaho", "lat": 43.6447642, "lon": -114.0154071, "rating": 86.0, "color": "#c62121"}, {"name": "Kumeu", "lat": -36.7764325, "lon": 174.55746645, "rating": 88.0, "color": "#ffdb58"}, {"name": "Kutjevo", "lat": 45.423994, "lon": 17.882287, "rating": 83.0, "color": "#c62121"}, {"name": "Marlborough", "lat": 42.3459271, "lon": -71.5522874, "rating": 87.88235294117646, "color": "#ffdb58"}, {"name": "Martinborough", "lat": -41.2183252, "lon": 175.4594856, "rating": 88.0, "color": "#ffdb58"}, {"name": "Massachusetts", "lat": 42.3788774, "lon": -72.032366, "rating": 83.0, "color": "#c62121"}, {"name": "Mendoza Province", "lat": -32.8056558, "lon": -61.4109795, "rating": 85.125, "color": "#c62121"}, {"name": "Michigan", "lat": 43.6211955, "lon": -84.6824346, "rating": 85.66666666666667, "color": "#c62121"}, {"name": "Moldova", "lat": 47.286747, "lon": 28.5110236, "rating": 86.0, "color": "#c62121"}, {"name": "Murfatlar", "lat": 44.1744515, "lon": 28.4137716588846, "rating": 86.0, "color": "#c62121"}, {"name": "M\u00e1tra", "lat": 47.8857587, "lon": 19.9507190857086, "rating": 87.0, "color": "#ffdb58"}, {"name": "Nelson", "lat": -41.2710849, "lon": 173.2836756, "rating": 87.33333333333333, "color": "#ffdb58"}, {"name": "New York", "lat": 40.7127281, "lon": -74.0060152, "rating": 86.8103448275862, "color": "#ffdb58"}, {"name": "New Zealand", "lat": -41.5000831, "lon": 172.8344077, "rating": 85.0, "color": "#c62121"}, {"name": "Oregon", "lat": 43.9792797, "lon": -120.737257, "rating": 88.53586497890295, "color": "#ffdb58"}, {"name": "Other", "lat": 27.5199764, "lon": 83.6593887565727, "rating": 83.0, "color": "#c62121"}, {"name": "Pfalz", "lat": 51.90263795, "lon": 10.4247685311828, "rating": 86.66666666666667, "color": "#ffdb58"}, {"name": "Rheinhessen", "lat": 49.9045181, "lon": 8.2711082, "rating": 88.5, "color": "#ffdb58"}, {"name": "Slovenia", "lat": 45.8133113, "lon": 14.4808369, "rating": 88.0, "color": "#ffdb58"}, {"name": "South Australia", "lat": -30.5343665, "lon": 135.6301212, "rating": 86.83333333333333, "color": "#ffdb58"}, {"name": "S\u00fcdsteiermark", "lat": 46.77684255, "lon": 15.6661967924541, "rating": 91.0, "color": "#ffdb58"}, {"name": "Tasmania", "lat": -42.14220555, "lon": 146.672351787847, "rating": 88.0, "color": "#ffdb58"}, {"name": "Victoria", "lat": -36.5986096, "lon": 144.6780052, "rating": 87.83333333333333, "color": "#ffdb58"}, {"name": "Virginia", "lat": 37.1232245, "lon": -78.4927721, "rating": 84.0, "color": "#c62121"}, {"name": "Waipara", "lat": -44.309399, "lon": 168.6809312, "rating": 86.5, "color": "#ffdb58"}, {"name": "Washington", "lat": 38.8948932, "lon": -77.0365529, "rating": 86.87603305785125, "color": "#ffdb58"}, {"name": "Washington-Oregon", "lat": 45.5601883, "lon": -123.0587907, "rating": 88.0, "color": "#ffdb58"}]}